[
  {
    "id": 145,
    "name": "Christ the Redeemer Statue",
    "imageUrl": "https://lh3.googleusercontent.com/p/AF1QipNYzcR5voohSjFC9vlhQuRr1KtodEg242faiNVG=s1600-w1600",
    "price": 164,
    "priceCurrency": "PHP",
    "lat": 16.620468,
    "lng": 120.318918
  },
  {
    "id": 148,
    "name": "Ma-Cho Temple (Taoist Temple)",
    "imageUrl": "https://lh5.googleusercontent.com/proxy/uU9wbhmrY_DuDcm9Lp9Z6HIWRqKhvvaorwK2Q1gjmAOg_liLFhOW84QiL1GG4ctvIDtllWJjNPSZGTBwoeRGQ0rOEadqawv7lgLz8lHZgiokJ1TBa-sEwOPl5aw_VTlM8_Cyh23hb7g139C8KhGTubdEN4WRPw=w408-h305-k-no",
    "price": 200,
    "priceCurrency": "PHP",
    "lat": 16.624185,
    "lng": 120.317459
     
  },
  {
    "id": 201,
    "name": "La Union Botanical and Zoological Garden",
    "imageUrl": "https://lh5.googleusercontent.com/p/AF1QipPawuWh8hsrTi4UTxxJ29S6pQ5duzOVCG7FRg0Y=w408-h306-k-no",
    "price": 150,
    "priceCurrency": "PHP",
    "lat": 16.586664,
    "lng": 120.365217
  },
  {
    "id": 205,
    "name": "Tangadan Falls",
    "imageUrl": "https://lh6.googleusercontent.com/proxy/LO7qG7LbF_wmVFC33gf6vTGf2Ueq-lsxXZ-Y-oHGzKKLgw02zUfsFIl-0twUgjPYrHEzU-biQAatQyvmrT7ZHm4pz4r2pmWfm05uua423j6as3k8piyqXEgKY7evlJ_GZv1sZqYLLnScMXxm6s-3jfGVcFiQEw=w408-h247-k-no",
    "price": 115,
    "priceCurrency": "PHP",
    "lat": 16.643617,
    "lng": 120.448767
  },
  {
    "id": 210,
    "name": "Lomboy Farms Resort",
    "imageUrl": "https://lh5.googleusercontent.com/p/AF1QipOyS8wqCDHvaq5nvogO2pcguOi2PAzJapkVaQma=w408-h306-k-no",
    "price": 135,
    "priceCurrency": "PHP",
    "lat": 16.469394,
    "lng": 120.330889
  },
  {
    "id": 211,
    "name": "Pindangan Ruins",
    "imageUrl": "https://lh6.googleusercontent.com/proxy/B80C6nGVC2QPGFWILULhe585PvdYg0jaOMQRKqBn2rNbuSFWJItBm6GbcXOUNzcMl59Q8s1FO2B4MF6_y0fEzZPRNV1JdfXnOKPQvgsTepI4inPlMsCNPH0Yze5TA2GWqU_BUlCtmbXCk6MwckdW-wlF89qTE1Y=w408-h228-k-no",
    "price": 90,
    "priceCurrency": "PHP",
    "lat": 16.588458,
    "lng": 120.314939
  }
  {
    "id": 212,
    "name": "Bacsil Ridge",
    "imageUrl": "https://lh5.googleusercontent.com/proxy/HrN3ugxeWh2-0pAph7CqzOz35j-2OAgxm0WzYtaoUYJDYNXOmIA07z-X5t_4_KHqfMXihNw3r5NzhIBO97l5v45eQVXCTuRXyFpkuWwBqiZILITKwZl6fftC4TLM589UGgfVZLhrmIko0WmDsnqQczMpk3_LijA=w408-h563-k-no",
    "price": 91,
    "priceCurrency": "PHP",
    "lat": 16.618277,
    "lng": 120.362899
  }
    {
    "id": 213,
    "name": "Baluarte Watch Tower",
    "imageUrl": "https://lh3.googleusercontent.com/proxy/aQISzTASbFJptMnbNuGvbgOuGRabmO8hX0kjmmItaE0KxJCIBJOHlRfb2r0xh7zxk2cmB_qGHLuoAsVVgWbvA-9A88kLn9oukX2nFD-yF_el1Z1UnErv0UqQ0cdfmsez97z9fXI2BosW21EFpVQvoPbL6fePFeg=w408-h271-k-no",
    "price": 92,
    "priceCurrency": "PHP",
    "lat": 16.857125,
    "lng": 120.372859
  }
    {
    "id": 214,
    "name": "Pebble Beach Resort",
    "imageUrl": "https://lh5.googleusercontent.com/p/AF1QipOjmxDZIC3Pr5pNnoVNEf20L3CyJMFQwRmKcHzc=w408-h306-k-no",
    "price": 93,
    "priceCurrency": "PHP",
    "lat": 16.839592,
    "lng": 120.337890
  }
    {
    "id": 215,
    "name": "Aureo La Union",
    "imageUrl": "https://lh5.googleusercontent.com/proxy/HEDQu8G-YHqJBhrI8xr1YlDvNqN8hsZEVYfkLJL1nopJnz3PQqMbJM8n5A5xJtXTErnGJy393NNmFyZP0qpm22K4a1vR7mch1PsSjTxNHJCtC9TNkm-yo5IObhyQ-HZkW3A7Tsz8UKwASKbQ2BqVI-90a_MkzQ=w408-h223-k-no",
    "price": 94,
    "priceCurrency": "PHP",
    "lat": 16.600162,
    "lng": 120.301748
  }
    {
    "id": 216,
    "name": "Basilica Minore of Our Lady of Charity",
    "imageUrl": "https://lh5.googleusercontent.com/proxy/3PVOP9YJ5NvYh9ZCQ9VHJvcLMO875glCGrZfeioqjWsPkxFwOqIKBZd7djVCp5Rl2mI5eTMOLEVjErizdCtxUBtLTqGl33ak4koRFne69M6OEqXBhcthogPocVkibBxM3a3fW-itUd0YOzZEudTQKODOPASO3nc=w408-h305-k-no",
    "price": 95,
    "priceCurrency": "PHP",
    "lat": 16.324693,
    "lng":  120.355421
  }
    {
    "id": 217,
    "name": "Agoo-Damortis National Seashore Park",
    "imageUrl": "https://lh5.googleusercontent.com/p/AF1QipM66Sgf3rFBWVESQQeaZs1_Yodc6aiQCfOL7vAR=w408-h306-k-no",
    "price": 96,
    "priceCurrency": "PHP",
    "lat": 16.354064,
    "lng": 120.343005
  }
    {
    "id": 218,
    "name": "Kahuna Beach Resort and Spa",
    "imageUrl": "https://lh6.googleusercontent.com/proxy/Nd0hKgMPaVGRvcIs3Px5RinYiOqJKeD1oHvQJHaxKs6tAMxwuGItSs6mi6I-k6NlQ9Q0w6hrK04S0_wgTCSwNIkkINGU51-7MesDMYrx7cfiBE-vKRw6MrgCvYfjCLKI4tQhwgBVTh7sYO_bWX284u6u2kjyWg=w408-h272-k-no",
    "price": 97,
    "priceCurrency": "PHP",
    "lat": 16.659318,
    "lng": 120.322019
  }
    {
    "id": 219,
    "name": "Balballosa, San Juan La Union",
    "imageUrl": "https://geo1.ggpht.com/cbk?panoid=jFYPTOf4uqZbk_HNuz2ryw&output=thumbnail&cb_client=search.TACTILE.gps&thumb=2&w=408&h=200&yaw=16.478462&pitch=0&thumbfov=100",
    "price": 98,
    "priceCurrency": "PHP",
    "lat": 16.653366,
    "lng":  120.417189
  }
]
